{
   "type": "FeatureCollection",
   "features": [
  {
    "type": "Feature",
    "geometry": {
       "type": "Point",
       "coordinates":  [ 5.08267, 52.0793 ]
    },
    "properties": {
    "puntnr":1151,
    "naam":"Dominee Martin Luther Kinglaan"
    }
  },
  {
    "type": "Feature",
    "geometry": {
       "type": "Point",
       "coordinates":  [ 5.08008, 52.09745 ]
    },
    "properties": {
    "puntnr":1152,
    "naam":"Vleutenseweg"
    }
  },
  {
    "type": "Feature",
    "geometry": {
       "type": "Point",
       "coordinates":  [ 5.11135, 52.06846 ]
    },
    "properties": {
    "puntnr":1153,
    "naam":"Kanaalweg"
    }
  },
  {
    "type": "Feature",
    "geometry": {
       "type": "Point",
       "coordinates":  [ 5.11356, 52.0929 ]
    },
    "properties": {
    "puntnr":1154,
    "naam":"Vredenburg"
    }
  },
  {
    "type": "Feature",
    "geometry": {
       "type": "Point",
       "coordinates":  [ 5.10832, 52.09576 ]
    },
    "properties": {
    "puntnr":1156,
    "naam":"Amsterdamsestraatweg"
    }
  },
  {
    "type": "Feature",
    "geometry": {
       "type": "Point",
       "coordinates":  [ 5.12713, 52.09281 ]
    },
    "properties": {
    "puntnr":1158,
    "naam":"Lucasbrug"
    }
  },
  {
    "type": "Feature",
    "geometry": {
       "type": "Point",
       "coordinates":  [ 5.13291, 52.07899 ]
    },
    "properties": {
    "puntnr":1162,
    "naam":"Venuslaan"
    }
  },
  {
    "type": "Feature",
    "geometry": {
       "type": "Point",
       "coordinates":  [ 5.14241, 52.09605 ]
    },
    "properties": {
    "puntnr":1164,
    "naam":"Biltstraat"
    }
  },
  {
    "type": "Feature",
    "geometry": {
       "type": "Point",
       "coordinates":  [ 5.16162, 52.0864 ]
    },
    "properties": {
    "puntnr":1165,
    "naam":"Archmideslaan"
    }
  },
  {
    "type": "Feature",
    "geometry": {
       "type": "Point",
       "coordinates":  [ 5.16113, 52.08414 ]
    },
    "properties": {
    "puntnr":1166,
    "naam":"Weg tot de Wetenschap"
    }
  },
  {
    "type": "Feature",
    "geometry": {
       "type": "Point",
       "coordinates":  [ 5.10713, 52.10695 ]
    },
    "properties": {
    "puntnr":1168,
    "naam":"Jagerskade"
    }
  },
  {
    "type": "Feature",
    "geometry": {
       "type": "Point",
       "coordinates":  [ 5.07936, 52.0867 ]
    },
    "properties": {
    "puntnr":1169,
    "naam":"Dafne Schippersbrug"
    }
  },
  {
    "type": "Feature",
    "geometry": {
       "type": "Point",
       "coordinates":  [ 5.12937, 52.08644 ]
    },
    "properties": {
    "puntnr":1160,
    "naam":"Maliesingel"
    }
  },
  {
    "type": "Feature",
    "geometry": {
       "type": "Point",
       "coordinates":  [ 5.10545, 52.09384 ]
    },
    "properties": {
    "puntnr":1161,
    "naam":"Cremerstraat"
    }
  },
  {
    "type": "Feature",
    "geometry": {
       "type": "Point",
       "coordinates":  [ 5.13354, 52.10295 ]
    },
    "properties": {
    "puntnr":1170,
    "naam":"Kard. De Jongweg"
    }
  },
  {
    "type": "Feature",
    "geometry": {
       "type": "Point",
       "coordinates":  [ 5.10748, 52.09132 ]
    },
    "properties": {
    "puntnr":1171,
    "naam":"Sijpesteintunnel"
    }
  }
]
}
